{
"formatted_address" : "381 Lenox Ave, New York, NY 10027"
"geometry" : {
  "location" :{
     "lat" : 40.7313524
     "lon" : -74.0065048
    } 
  }, 
"name" : " Sushi Inoue"
} 
{
"formatted_address" : "103 W 77th St, New York, NY 10024"
"geometry" : {
  "location" :{
     "lat" : 40.70544486444615
     "lon" : -73.99429321289062
    } 
  }, 
"name" : " Dovetail"
} 
{
"formatted_address" : "20 E 76th St, New York, NY 10021"
"geometry" : {
  "location" :{
     "lat" : 40.7136187
     "lon" : -73.9888503
    } 
  }, 
"name" : " Cafe Boulud"
} 
{
"formatted_address" : "1 Central Park West, New York, NY 10023"
"geometry" : {
  "location" :{
     "lat" : 40.7327
     "lon" : -73.99766
    } 
  }, 
"name" : " Jean-Georges"
} 
{
"formatted_address" : "10 Columbus Cir, New York, NY 10019"
"geometry" : {
  "location" :{
     "lat" : 40.75703
     "lon" : -73.97692
    } 
  }, 
"name" : " Masa"
} 
{
"formatted_address" : "240 Central Park S, New York, NY 10019"
"geometry" : {
  "location" :{
     "lat" : 40.7763330374196
     "lon" : -73.9105868339539
    } 
  }, 
"name" : " Marea"
} 
{
"formatted_address" : "60 E 65th St, New York, NY 10065"
"geometry" : {
  "location" :{
     "lat" : 40.73715
     "lon" : -73.98789
    } 
  }, 
"name" : " Daniel"
} 
{
"formatted_address" : "362 W 53rd St, New York, NY 10019"
"geometry" : {
  "location" :{
     "lat" : 40.74545
     "lon" : -73.98499
    } 
  }, 
"name" : " Torishin"
} 
{
"formatted_address" : "155 W 51st St, New York, NY 10019"
"geometry" : {
  "location" :{
     "lat" : 40.7327
     "lon" : -73.99766
    } 
  }, 
"name" : " Le Bernardin"
} 
{
"formatted_address" : "9 W 53rd St, New York, NY 10019"
"geometry" : {
  "location" :{
     "lat" : 40.7327
     "lon" : -73.99766
    } 
  }, 
"name" : " The Modern"
} 
{
"formatted_address" : "65 E 55th St, New York, NY 10022"
"geometry" : {
  "location" :{
     "lat" : 40.7525286099337
     "lon" : -73.9780961338684
    } 
  }, 
"name" : " Aquavit"
} 
{
"formatted_address" : "538 Madison Ave, New York, NY 10022"
"geometry" : {
  "location" :{
     "lat" : 40.7632
     "lon" : -73.98469
    } 
  }, 
"name" : " Caviar Russe"
} 
{
"formatted_address" : "114 W 47th St (discreetly located), New York, NY 10036"
"geometry" : {
  "location" :{
     "lat" : 40.70544486444615
     "lon" : -73.99429321289062
    } 
  }, 
"name" : " Satsuki (Suzuki’s sushi bar)"
} 
{
"formatted_address" : "431 W 37th St, New York, NY 10018"
"geometry" : {
  "location" :{
     "lat" : 40.75851
     "lon" : -73.98322
    } 
  }, 
"name" : " Chef's Table at Brooklyn Fare"
} 
{
"formatted_address" : "135 W 42nd St, New York, NY 10036"
"geometry" : {
  "location" :{
     "lat" : 40.70544486444615
     "lon" : -73.99429321289062
    } 
  }, 
"name" : " Aureole"
} 
{
"formatted_address" : "41 W 42nd St, New York, NY 10036"
"geometry" : {
  "location" :{
     "lat" : 40.7525286099337
     "lon" : -73.9780961338684
    } 
  }, 
"name" : " Gabriel Kreuther"
} 
{
"formatted_address" : "461 5th Ave, New York, NY 10017"
"geometry" : {
  "location" :{
     "lat" : 40.7314
     "lon" : -73.98589
    } 
  }, 
"name" : " Sushi Ginza Onodera"
} 
{
"formatted_address" : "245 E 44th St, New York, NY 10017"
"geometry" : {
  "location" :{
     "lat" : 40.7291024
     "lon" : -73.9900618
    } 
  }, 
"name" : " Sushi Amane"
} 
{
"formatted_address" : "204 E 43rd St, New York, NY 10017"
"geometry" : {
  "location" :{
     "lat" : 40.72803
     "lon" : -74.00167
    } 
  }, 
"name" : " Sushi Yasuda"
} 
{
"formatted_address" : "400 5th Ave #2, New York, NY 10018"
"geometry" : {
  "location" :{
     "lat" : 40.75612
     "lon" : -73.99467
    } 
  }, 
"name" : " Ai Fiori"
} 
{
"formatted_address" : "13 E 37th St, New York, NY 10016"
"geometry" : {
  "location" :{
     "lat" : 40.7499225208569
     "lon" : -73.9819464127197
    } 
  }, 
"name" : " Café China"
} 
{
"formatted_address" : "125 E 39th St, New York, NY 10016"
"geometry" : {
  "location" :{
     "lat" : 40.70544486444615
     "lon" : -73.99429321289062
    } 
  }, 
"name" : " Kajitsu"
} 
{
"formatted_address" : "222 E 39th St, New York, NY 10016"
"geometry" : {
  "location" :{
     "lat" : 40.75638
     "lon" : -73.97759
    } 
  }, 
"name" : " Tempura Matsui"
} 
{
"formatted_address" : "362 W 23rd St, New York, NY 10011"
"geometry" : {
  "location" :{
     "lat" : 40.767568
     "lon" : -73.952815
    } 
  }, 
"name" : " Ushiwakamaru"
} 
{
"formatted_address" : "16 W 29th St, New York, NY 10001"
"geometry" : {
  "location" :{
     "lat" : 40.76633
     "lon" : -73.98666
    } 
  }, 
"name" : " The Breslin"
} 
{
"formatted_address" : "1170 Broadway, New York, NY 10001"
"geometry" : {
  "location" :{
     "lat" : 40.72638
     "lon" : -73.98904
    } 
  }, 
"name" : " The NoMad Restaurant"
} 
{
"formatted_address" : "85 10th Ave, New York, NY 10011"
"geometry" : {
  "location" :{
     "lat" : 40.7763330374196
     "lon" : -73.9105868339539
    } 
  }, 
"name" : " Del Posto"
} 
{
"formatted_address" : "5-48 49th Ave, Long Island City, NY 11101"
"geometry" : {
  "location" :{
     "lat" : 40.7438054
     "lon" : -73.9515007
    } 
  }, 
"name" : " Casa Enrique"
} 
{
"formatted_address" : "27 W 24th St, New York, NY 10010"
"geometry" : {
  "location" :{
     "lat" : 40.72191
     "lon" : -73.98666
    } 
  }, 
"name" : " Junoon"
} 
{
"formatted_address" : "88 9th Ave, New York, NY 10011"
"geometry" : {
  "location" :{
     "lat" : 40.721128
     "lon" : -73.983933
    } 
  }, 
"name" : " La Sirena"
} 
{
"formatted_address" : "11 Madison Ave, New York, NY 10010"
"geometry" : {
  "location" :{
     "lat" : 40.6598242
     "lon" : -73.980508
    } 
  }, 
"name" : " Eleven Madison Park"
} 
{
"formatted_address" : "5 Madison Ave, New York, NY 10010"
"geometry" : {
  "location" :{
     "lat" : 40.70544486444615
     "lon" : -73.99429321289062
    } 
  }, 
"name" : " The Clocktower"
} 
{
"formatted_address" : "16 W 22nd St, New York, NY 10010"
"geometry" : {
  "location" :{
     "lat" : 40.749866
     "lon" : -73.984441
    } 
  }, 
"name" : " Cote Korean Steakhouse"
} 
{
"formatted_address" : "126 W 18th St, New York, NY 10011"
"geometry" : {
  "location" :{
     "lat" : 40.70544486444615
     "lon" : -73.99429321289062
    } 
  }, 
"name" : " Rouge Tomate Chelsea"
} 
{
"formatted_address" : "641 Hudson St, New York, NY 10014"
"geometry" : {
  "location" :{
     "lat" : 40.70544486444615
     "lon" : -73.99429321289062
    } 
  }, 
"name" : " Gunter Seeger NY"
} 
{
"formatted_address" : "31 W 17th St, New York, NY 10011"
"geometry" : {
  "location" :{
     "lat" : 40.70544486444615
     "lon" : -73.99429321289062
    } 
  }, 
"name" : " ALDEA"
} 
{
"formatted_address" : "42 E 20th St, New York, NY 10003"
"geometry" : {
  "location" :{
     "lat" : 40.699973
     "lon" : -73.993781
    } 
  }, 
"name" : " Gramercy Tavern"
} 
{
"formatted_address" : "52 Irving Pl, New York, NY 10003"
"geometry" : {
  "location" :{
     "lat" : 40.7345163811398
     "lon" : -73.9983369619683
    } 
  }, 
"name" : " Casa Mono"
} 
{
"formatted_address" : "344 W 11th St, New York, NY 10014"
"geometry" : {
  "location" :{
     "lat" : 40.70544486444615
     "lon" : -73.99429321289062
    } 
  }, 
"name" : " Wallsé"
} 
{
"formatted_address" : "12 E 12th St, New York, NY 10003"
"geometry" : {
  "location" :{
     "lat" : 40.74007
     "lon" : -73.99344
    } 
  }, 
"name" : " Gotham Bar and Grill"
} 
{
"formatted_address" : "72 University Pl, New York, NY 10003"
"geometry" : {
  "location" :{
     "lat" : 40.73874
     "lon" : -73.99444
    } 
  }, 
"name" : " Nix"
} 
{
"formatted_address" : "110 Waverly Pl, New York, NY 10011"
"geometry" : {
  "location" :{
     "lat" : 40.733826
     "lon" : -73.999852
    } 
  }, 
"name" : " Babbo"
} 
{
"formatted_address" : "75 Washington Pl, New York, NY 10011"
"geometry" : {
  "location" :{
     "lat" : 40.745414
     "lon" : -73.979004
    } 
  }, 
"name" : " Blue Hill"
} 
{
"formatted_address" : "175 2nd Ave, New York, NY 10003"
"geometry" : {
  "location" :{
     "lat" : 40.7314
     "lon" : -73.98589
    } 
  }, 
"name" : " Kanoyama"
} 
{
"formatted_address" : "113 Macdougal St, New York, NY 10012"
"geometry" : {
  "location" :{
     "lat" : 40.72829
     "lon" : -73.98271
    } 
  }, 
"name" : " Minetta Tavern"
} 
{
"formatted_address" : "88 W 3rd St, New York, NY 10012"
"geometry" : {
  "location" :{
     "lat" : 40.767568
     "lon" : -73.952815
    } 
  }, 
"name" : " Sushi Zo"
} 
{
"formatted_address" : "181 Thompson St, New York, NY 10012"
"geometry" : {
  "location" :{
     "lat" : 40.8141624
     "lon" : -73.960288
    } 
  }, 
"name" : " Carbone"
} 
{
"formatted_address" : "169 Thompson St, New York, NY 10012"
"geometry" : {
  "location" :{
     "lat" : 40.76633
     "lon" : -73.98666
    } 
  }, 
"name" : " ZZ's Clam Bar"
} 
{
"formatted_address" : "239 E 5th St, New York, NY 10003"
"geometry" : {
  "location" :{
     "lat" : 40.72803
     "lon" : -74.00167
    } 
  }, 
"name" : " Jewel Bako"
} 
{
"formatted_address" : "94 E 7th St, New York, NY 10009"
"geometry" : {
  "location" :{
     "lat" : 40.75703
     "lon" : -73.97692
    } 
  }, 
"name" : " Kyo Ya"
} 
{
"formatted_address" : "8 Extra Pl, New York, NY 10003"
"geometry" : {
  "location" :{
     "lat" : 40.7141530317142
     "lon" : -73.9904247969389
    } 
  }, 
"name" : " Momofuku Ko"
} 
{
"formatted_address" : "73 Thompson St, New York, NY 10012"
"geometry" : {
  "location" :{
     "lat" : 40.72803
     "lon" : -74.00167
    } 
  }, 
"name" : " Hirohisa"
} 
{
"formatted_address" : "265 Elizabeth St, New York, NY 10012"
"geometry" : {
  "location" :{
     "lat" : 40.720073
     "lon" : -74.007227
    } 
  }, 
"name" : " The Musket Room"
} 
{
"formatted_address" : "218 Bowery, New York, NY 10012"
"geometry" : {
  "location" :{
     "lat" : 40.713658
     "lon" : -73.957576
    } 
  }, 
"name" : " Rebelle"
} 
{
"formatted_address" : "217 Eldridge St, New York, NY 10002"
"geometry" : {
  "location" :{
     "lat" : 40.70544486444615
     "lon" : -73.99429321289062
    } 
  }, 
"name" : " Uchu"
} 
{
"formatted_address" : "7 Spring St, New York, NY 10012"
"geometry" : {
  "location" :{
     "lat" : 40.7303859
     "lon" : -73.9860613
    } 
  }, 
"name" : " Uncle Boons"
} 
{
"formatted_address" : "138 Orchard St, New York, NY 10002"
"geometry" : {
  "location" :{
     "lat" : 40.09073
     "lon" : -74.05147
    } 
  }, 
"name" : " Contra"
} 
{
"formatted_address" : "239 W Broadway, New York, NY 10013"
"geometry" : {
  "location" :{
     "lat" : 40.820352
     "lon" : -73.409301
    } 
  }, 
"name" : " Bâtard"
} 
{
"formatted_address" : "2 Harrison St, New York, NY 10013"
"geometry" : {
  "location" :{
     "lat" : 40.73684
     "lon" : -73.99069
    } 
  }, 
"name" : " Jungsik"
} 
{
"formatted_address" : "135 N 5th St, Brooklyn, NY 11249"
"geometry" : {
  "location" :{
     "lat" : 40.71702
     "lon" : -73.959077
    } 
  }, 
"name" : " Delaware and Hudson"
} 
{
"formatted_address" : "77 Worth St, New York, NY 10013"
"geometry" : {
  "location" :{
     "lat" : 40.70544486444615
     "lon" : -73.99429321289062
    } 
  }, 
"name" : " Atera"
} 
{
"formatted_address" : "47 S 5th St, Brooklyn, NY 11249"
"geometry" : {
  "location" :{
     "lat" : 40.7525286099337
     "lon" : -73.9780961338684
    } 
  }, 
"name" : " Aska"
} 
{
"formatted_address" : "225 Liberty St, New York, NY 10281"
"geometry" : {
  "location" :{
     "lat" : 40.70544486444615
     "lon" : -73.99429321289062
    } 
  }, 
"name" : " L'Appart"
} 
{
"formatted_address" : "149 Broadway, Brooklyn, NY 11211"
"geometry" : {
  "location" :{
     "lat" : 40.70544486444615
     "lon" : -73.99429321289062
    } 
  }, 
"name" : " Meadowsweet"
} 
{
"formatted_address" : "178 Broadway, Brooklyn, NY 11211"
"geometry" : {
  "location" :{
     "lat" : 40.71503
     "lon" : -73.94767
    } 
  }, 
"name" : " Peter Luger Steak House"
} 
{
"formatted_address" : "436 Jefferson St, Brooklyn, NY 11237"
"geometry" : {
  "location" :{
     "lat" : 40.6358621544235
     "lon" : -74.0266559830585
    } 
  }, 
"name" : " Faro"
} 
{
"formatted_address" : "261 Moore St, Brooklyn, NY 11206"
"geometry" : {
  "location" :{
     "lat" : 40.74545
     "lon" : -73.98652
    } 
  }, 
"name" : " Blanca"
} 
{
"formatted_address" : "1 Water St, Brooklyn, NY 11201"
"geometry" : {
  "location" :{
     "lat" : 40.7136054
     "lon" : -73.965905
    } 
  }, 
"name" : " The River Café"
} 
{
"formatted_address" : "268 Clinton St, Brooklyn, NY 11201"
"geometry" : {
  "location" :{
     "lat" : 40.70544486444615
     "lon" : -73.99429321289062
    } 
  }, 
"name" : " La Vara"
} 
{
"formatted_address" : "212 Greene Ave, Brooklyn, NY 11238"
"geometry" : {
  "location" :{
     "lat" : 40.72829
     "lon" : -73.98271
    } 
  }, 
"name" : " The Finch"
} 
{
"formatted_address" : "4th Floor  Time Warner Center  10 Columbus Cir, New York, NY 10023"
"geometry" : {
  "location" :{
     "lat" : 40.7327
     "lon" : -73.99766
    } 
  }, 
"name" : " Per Se"
} 
{
"formatted_address" : "Grand Central Terminal  89 E 42nd St, New York, NY 10017"
"geometry" : {
  "location" :{
     "lat" : 40.7525286099337
     "lon" : -73.9780961338684
    } 
  }, 
"name" : " Agern"
} 